     2.11           OBSERVATION DATA    M (MIXED)           RINEX VERSION / TYPE
teqc  2019Feb25                         20201215 15:20:58UTCPGM / RUN BY / DATE
SEPT                                                        MARKER NAME
Unknown                                                     MARKER NUMBER
Unknown             Unknown                                 OBSERVER / AGENCY
2003891             SEPT POLARXS        2.2-tst110427r31349 REC # / TYPE / VERS
Unknown             Unknown                                 ANT # / TYPE
        0.0000        0.0000        0.0000                  APPROX POSITION XYZ
        0.0000        0.0000        0.0000                  ANTENNA: DELTA H/E/N
     1     1                                                WAVELENGTH FACT L1/2
     6    C1    L1    L2    P2    P1    C2                  # / TYPES OF OBSERV
    15.0000                                                 INTERVAL
Linux2.6.32-573.12.1.el6.x86_64|x86_64|gcc|Win64-MinGW64|=+ COMMENT
teqc  2019Feb25                         20201215 15:17:37UTCCOMMENT
sbf2rin-13.2.0                          09-DEC-20 09:05     COMMENT
For GPS, L2 corresponds to the L2P carrier phase.           COMMENT
For GLONASS, L2 corresponds to the L2CA carrier phase.      COMMENT
Forced Modulo Decimation to 15 seconds                      COMMENT
    15                                                      LEAP SECONDS
  2011    11     1     2     0    0.0000000     GPS         TIME OF FIRST OBS
                                                            END OF HEADER
 11 11  1  2  0  0.0000000  0 21G02G29G05G27G12G21G25G09G10R13R14R24
                                R17R01R15R18R02R16S20S33S38
  22373438.906 8 117573415.497 8  91615775.516 5  22373440.124 5  22373438.383 5

  21896565.198 8 115067244.430 8  89662828.523 6  21896572.508 6  21896565.127 6
  21896572.171 7
  23015040.441 7 120945004.937 7  94242960.820 5  23015044.457 5  23015040.485 5
  23015045.654 6
  24001167.814 6 126126963.702 6  98280786.314 4  24001182.912 4  24001167.345 4

  20612184.068 8 108317989.682 8  84403742.386 6  20612186.428 6  20612183.984 6
  20612186.338 7
  23972095.598 6 125974223.706 6  98161762.745 3  23972102.542 3  23972094.847 3

  21200581.259 8 111409926.645 8  86813026.815 7  21200587.593 7  21200580.669 7
  21200587.685 7
  22017068.215 7 115700608.712 7  90156254.563 6  22017071.696 6  22017067.849 6

  25435493.492 5 133664427.674 5 104154111.816 1  25435495.937 1  25435492.728 1

  24229640.759 6 129384901.040 6

  20239403.333 8 107887536.637 8  83912626.939 7
  20239412.226 7
  23043675.785 7 123225068.720 7  95841873.990 6
  23043684.022 6
  20838860.851 7 111513072.985 7  86732323.516 5
  20838869.044 5
  23507111.596 7 125658991.709 7  97734799.349 6
  23507119.067 6
  20017742.040 8 106968781.992 8  83197990.445 8
  20017752.464 8
  22181979.162 7 118408966.766 7  92095927.132 7
  22181989.056 7
  22988477.483 7 122670963.889 7  95410819.295 6
  22988488.496 6
  23667144.220 5 126425622.886 5

  37213152.745 7 195556522.444 7

  38360567.450 7 201586106.862 7

  39221482.994 7 206110357.760 7

 11 11  1  2  0 15.0000000  0 21G02G29G14G05G27G12G21G25G09G10R13R14
                                R24R17R01R15R18R02S20S33S38
  22382023.657 8 117618530.040 8  91650929.694 5  22382025.264 5  22382023.121 5

  21894044.132 8 115053995.561 8  89652504.798 6  21894051.269 6  21894044.061 6
  21894050.958 7
  25559724.829 5 134317258.159 5

  23011113.583 7 120924368.330 7  94226880.367 5  23011117.290 5  23011113.645 5
  23011118.525 6
  24011926.185 7 126183497.746 7  98324838.678 4  24011941.015 4  24011925.716 4

  20610846.941 8 108310963.230 8  84398266.912 6  20610849.476 6  20610846.852 6
  20610849.504 7
  23961076.571 6 125916318.235 6  98116641.565 3  23961083.226 3  23961075.780 3

  21194697.475 8 111379007.150 8  86788933.489 7  21194703.908 7  21194696.881 7
  21194704.285 7
  22024814.645 7 115741317.449 7  90187975.699 4  22024817.203 4  22024814.279 4

  25437906.727 6 133677114.148 6 104163997.499 1  25437909.942 1  25437906.003 1

  24241673.668 6 129449155.106 6 100682768.460 5
  24241690.285 5
  20247404.616 8 107930186.827 8  83945798.946 7
  20247413.666 7
  23049958.913 7 123258665.003 7  95868004.407 6
  23049965.924 6
  20841549.042 8 111527456.864 8  86743511.177 6
  20841555.608 6
  23505655.360 7 125651207.885 7  97728745.277 6
  23505662.578 6
  20012365.664 8 106940052.144 8  83175645.063 7
  20012375.772 7
  22178622.419 7 118391052.373 7  92081993.933 6
  22178633.189 6
  22980777.760 7 122629873.950 7  95378860.587 7
  22980788.170 7
  37212726.134 7 195554284.418 7

  38360332.135 7 201584876.704 7

  39221094.477 7 206108314.745 7

 11 11  1  2  0 30.0000000  0 21G02G29G14G05G27G12G21G25G09G10R13R14
                                R24R17R01R15R18R02S20S33S38
  22390620.199 7 117663703.473 7  91686129.739 5  22390621.779 5  22390619.663 5

  21891528.782 8 115040778.088 8  89642205.526 6  21891535.833 6  21891528.706 6
  21891535.650 7
  25563304.952 5 134336066.470 5

  23007202.540 7 120903815.817 7  94210865.463 5  23007206.378 5  23007202.616 5
  23007207.762 6
  24022682.659 7 126240024.373 7  98368885.247 4  24022697.614 4  24022682.163 4

  20609526.529 8 108304025.751 8  84392861.536 7  20609529.225 7  20609526.440 7
  20609528.835 7
  23950065.367 6 125858452.955 6  98071552.009 3  23950071.949 3  23950064.598 3

  21188823.275 8 111348137.598 8  86764879.233 7  21188829.685 7  21188822.681 7
  21188830.128 7
  22032573.910 8 115782094.544 8  90219749.639 6  22032576.135 6  22032573.557 6

  25440340.706 5 133689898.792 5 104173959.615 1  25440342.406 1  25440339.919 1

  24253706.133 6 129513411.274 6 100732745.888 6
  24253724.135 6
  20255432.848 8 107972979.853 8  83979082.231 7
  20255441.646 7
  23056235.347 6 123292222.828 6  95894104.859 6
  23056241.695 6
  20844242.217 7 111541866.151 7  86754718.084 6
  20844248.944 6
  23504225.870 7 125643569.083 7  97722804.014 6
  23504234.208 6
  20007024.373 8 106911509.719 8  83153445.430 8
  20007034.408 8
  22175277.312 7 118373198.231 7  92068107.518 7
  22175288.160 7
  22973086.040 7 122588830.084 7  95346937.678 7
  22973096.389 7
  37212300.454 7 195552044.490 7

  38360099.195 7 201583644.757 7

  39220707.691 7 206106270.387 7

 11 11  1  2  0 45.0000000  0 21G02G29G14G05G27G12G21G25G09G10R13R14
                                R24R17R01R15R18R02S20S33S38
  22399227.521 8 117708935.434 8  91721375.408 5  22399229.281 5  22399226.980 5

  21889019.673 8 115027591.721 8  89631930.508 6  21889026.278 6  21889019.593 6
  21889026.262 7
  25566890.447 5 134354908.028 5

  23003307.259 7 120883347.524 7  94194916.185 5  23003311.402 5  23003307.339 5
  23003312.477 6
  24033437.665 7 126296543.199 7  98412925.745 4  24033452.944 4  24033437.156 4

  20608223.086 8 108297175.599 8  84387523.595 7  20608225.604 7  20608222.997 7
  20608225.784 7
  23939061.709 6 125800628.091 6  98026493.830 3  23939068.305 3  23939060.972 3

  21182959.102 8 111317316.404 8  86740861.906 6  21182964.740 6  21182958.503 6
  21182965.710 7
  22040346.991 7 115822937.406 7  90251575.658 5  22040348.521 5  22040346.643 5

  25442791.567 6 133702781.618 6 104183998.152 1  25442793.687 1  25442790.669 1

  24265737.623 5 129577668.491 5 100782723.923 6
  24265757.878 6
  20263487.551 8 108015913.255 8  84012473.824 7
  20263496.681 7
  23062503.167 6 123325741.768 6  95920175.169 6
  23062510.215 6
  20846939.932 7 111556301.999 7  86765945.937 6
  20846946.999 6
  23502823.880 6 125636075.481 6  97716975.676 6
  23502832.698 6
  20001718.215 7 106883154.944 7  83131391.774 7
  20001728.226 7
  22171944.138 7 118355404.273 7  92054267.863 6
  22171954.595 6
  22965402.152 7 122547832.689 7  95315050.955 7
  22965413.790 7
  37211872.327 7 195549805.628 7

  38359862.945 7 201582413.664 7

  39220314.590 7 206104226.768 7

 11 11  1  2  1  0.0000000  0 21G02G29G14G05G27G12G21G25G09G10R13R14
                                R24R17R01R15R18R02S20S33S38
  22407845.940 7 117754225.625 7  91756666.428 5  22407847.855 5  22407845.386 5

  21886516.638 8 115014436.530 8  89621679.774 6  21886522.518 6  21886516.567 6
  21886523.315 7
  25570483.200 5 134373782.516 5 104706889.414 1  25570492.482 1  25570482.467 1

  22999428.632 7 120862964.001 7  94179032.954 5  22999432.524 5  22999428.699 5
  22999433.485 6
  24044191.929 7 126353053.855 7  98456959.889 4  24044206.696 4  24044191.420 4

  20606936.678 8 108290413.270 8  84382253.919 6  20606938.537 6  20606936.594 6
  20606939.197 7
  23928065.449 6 125742843.801 6  97981467.289 3  23928071.906 3  23928064.689 3

  21177103.787 8 111286547.304 8  86716886.037 7  21177110.157 7  21177103.184 7
  21177110.506 7
  22048131.491 7 115863849.712 7  90283455.801 5  22048134.412 5  22048131.170 5

  25445261.603 5 133715762.521 5 104194113.249 1  25445264.057 1  25445260.647 1

  24277774.108 6 129641926.484 6 100832702.536 6
  24277790.189 6
  20271568.807 8 108058989.809 8  84045977.757 7
  20271578.215 7
  23068763.343 6 123359222.113 6  95946215.499 6
  23068771.300 6
  20849642.846 7 111570763.780 7  86777193.951 6
  20849649.053 6
  23501449.568 7 125628727.248 7  97711260.389 6
  23501458.199 6
  19996446.547 7 106854988.763 7  83109484.779 7
  19996457.311 7
  22168621.589 7 118337670.059 7  92040474.686 6
  22168631.853 6
  22957728.563 7 122506882.430 7  95283200.830 6
  22957738.969 6
  37211445.323 7 195547566.257 7

  38359629.563 7 201581182.667 7

  39219930.782 7 206102181.877 7

 11 11  1  2  1 15.0000000  0 21G02G29G14G05G27G12G21G25G09G10R13R14
                                R24R17R01R15R18R02S20S33S38
  22416475.235 7 117799573.598 7  91792002.493 5  22416477.286 5  22416474.690 5

  21884019.056 8 115001312.372 8  89611453.240 6  21884024.728 6  21884018.985 6
  21884025.452 7
  25574079.879 5 134392688.598 5 104721621.270 1  25574090.354 1  25574079.245 1

  22995565.708 7 120842665.468 7  94163215.946 5  22995569.780 5  22995565.779 5
  22995570.917 6
  24054943.964 7 126409555.961 7  98500987.357 4  24054958.802 4  24054943.446 4

  20605666.759 8 108283740.493 8  84377054.622 6  20605668.555 6  20605666.666 6
  20605669.354 7
  23917077.378 7 125685100.724 7  97936472.986 4  23917083.086 4  23917076.645 4

  21171258.228 8 111255827.952 8  86692948.678 6  21171264.400 6  21171257.620 6
  21171264.954 7
  22055929.721 7 115904829.171 7  90315388.226 5  22055932.510 5  22055929.395 5

  25447751.456 5 133728841.485 5 104204304.688 1  25447752.600 1  25447750.531 1

  24289805.418 6 129706184.931 6 100882681.684 6
  24289823.486 6
  20279676.765 8 108102207.001 8  84079590.622 7
  20279685.761 7
  23075017.404 6 123392663.707 6  95972225.601 6
  23075025.935 6
  20852350.615 7 111585250.478 7  86788461.129 6
  20852356.679 6
  23500102.117 7 125621524.816 7  97705658.465 6
  23500109.384 6
  19991211.197 8 106827011.116 8  83087724.430 7
  19991221.673 7
  22165311.149 7 118319995.707 7  92026728.140 7
  22165320.845 7
  22950062.742 7 122465979.787 7  95251387.782 6
  22950073.679 6
  37211020.541 7 195545326.463 7

  38359394.212 7 201579952.563 7

  39219540.928 7 206100138.168 7

 11 11  1  2  1 30.0000000  0 21G02G29G14G05G27G12G21G25G09G10R13R14
                                R24R17R01R15R18R02S20S33S38
  22425115.841 7 117844979.044 7  91827383.345 5  22425117.633 5  22425115.300 5

  21881527.271 8 114988218.867 8  89601250.567 6  21881533.042 6  21881527.195 6
  21881533.846 7
  25577682.822 4 134411625.869 4 104736377.068 1  25577694.375 1  25577682.259 1

  22991719.218 7 120822452.012 7  94147465.234 5  22991722.915 5  22991719.294 5
  22991724.442 6
  24065694.402 7 126466049.152 7  98545007.889 4  24065708.980 4  24065693.884 4

  20604413.661 8 108277157.767 8  84371925.679 6  20604416.206 6  20604413.563 6
  20604416.223 8
  23906096.743 6 125627398.432 6  97891510.157 3  23906102.659 3  23906096.015 3

  21165422.250 8 111225159.836 8  86669051.451 7  21165428.575 7  21165421.642 7
  21165429.074 7
  22063740.202 8 115945875.354 8  90347372.463 5  22063742.789 5  22063739.912 5

  25450258.244 5 133742018.532 5 104214572.560 1  25450260.049 1  25450257.261 1

  24301838.508 6 129770442.846 6 100932660.476 6
  24301855.598 6
  20287810.231 9 108145567.172 9  84113315.453 8
  20287819.373 8
  23081262.840 6 123426066.422 6  95998205.467 6
  23081270.480 6
  20855062.604 7 111599762.260 7  86799747.789 5
  20855069.082 5
  23498782.109 7 125614468.088 7  97700169.926 6
  23498789.892 6
  19986011.064 7 106799223.175 7  83066111.636 7
  19986021.845 7
  22162011.088 8 118302381.083 8  92013028.036 7
  22162021.027 7
  22942407.320 7 122425125.413 7  95219612.207 6
  22942417.459 6
  37210597.083 7 195543087.949 7

  38359160.829 7 201578722.560 7

  39219153.015 7 206098094.404 7

 11 11  1  2  1 45.0000000  0 20G02G29G05G27G12G21G25G09G10R13R14R24
                                R17R01R15R18R02S20S33S38
  22433767.181 7 117890441.563 7  91862808.663 5  22433769.042 5  22433766.654 5

  21879041.286 8 114975156.006 8  89591071.786 6  21879047.343 6  21879041.197 6
  21879047.593 7
  22987888.635 7 120802323.950 7  94131781.048 5  22987892.438 5  22987888.697 5
  22987893.906 6
  24076442.781 7 126522533.147 7  98589021.268 4  24076457.674 4  24076442.258 4

  20603177.456 8 108270660.924 8  84366862.853 6  20603179.525 6  20603177.363 6
  20603180.196 7
  23895123.848 6 125569737.416 6  97846579.574 3  23895130.155 3  23895123.151 3

  21159595.798 8 111194543.329 8  86645194.547 7  21159602.400 7  21159595.186 7
  21159602.875 7
  22071563.532 7 115986986.462 7  90379406.842 5  22071565.656 5  22071563.202 5

  25452784.248 5 133755293.760 5 104224916.889 1  25452785.975 1  25452783.166 1

  24313872.507 6 129834699.884 6 100982638.409 5
  24313888.199 5
  20295971.653 8 108189062.444 8  84147143.783 8
  20295980.704 8
  23087502.416 6 123459430.307 6  96024155.158 6
  23087510.003 6
  20857779.019 7 111614299.759 7  86811054.823 5
  20857785.482 5
  23497488.529 7 125607557.677 7  97694795.144 6
  23497496.906 6
  19980846.352 8 106771624.078 8  83044645.690 7
  19980856.834 7
  22158722.826 7 118284825.849 7  91999374.078 7
  22158732.232 7
  22934759.671 7 122384319.646 7  95187874.500 6
  22934770.675 6
  37210167.924 7 195540847.668 7

  38358923.341 7 201577493.269 7

  39218761.113 7 206096050.735 7

 11 11  1  2  2  0.0000000  0 20G02G29G05G27G12G21G25G09G10R13R14R24
                                R17R01R15R18R02S20S33S38
  22442429.171 7 117935960.773 7  91898278.149 5  22442431.205 5  22442428.639 5

  21876561.476 8 114962123.654 8  89580916.776 6  21876567.448 6  21876561.392 6
  21876567.635 7
  22984074.790 7 120782281.716 7  94116163.763 5  22984078.609 5  22984074.843 5
  22984079.832 6
  24087189.033 7 126579007.521 7  98633027.135 4  24087204.361 4  24087188.537 4

  20601958.432 8 108264254.723 8  84361871.058 6  20601960.480 6  20601958.330 6
  20601961.298 7
  23884159.236 6 125512118.269 6  97801681.652 2  23884165.741 2  23884158.539 2

  21153779.288 8 111163977.442 8  86621377.030 7  21153785.476 7  21153778.676 7
  21153786.529 7
  22079399.096 7 116028164.799 7  90411494.289 5  22079402.027 5  22079398.752 5

  25455329.160 5 133768666.845 5 104235337.490 1  25455330.632 1  25455328.092 1

  24325906.130 6 129898955.812 6 101032615.493 5
  24325921.308 5
  20304157.813 8 108232701.500 8  84181085.633 7
  20304166.719 7
  23093735.592 6 123492755.049 6  96050074.413 6
  23093741.598 6
  20860500.911 7 111628861.154 7  86822380.163 6
  20860507.537 6
  23496224.184 7 125600793.493 7  97689534.112 6
  23496230.438 6
  19975717.225 8 106744215.015 8  83023327.561 7
  19975727.399 7
  22155445.223 7 118267329.415 7  91985765.877 6
  22155455.255 6
  22927121.854 7 122343563.088 7  95156175.074 6
  22927132.052 6
  37209744.018 7 195538608.101 7

  38358690.455 7 201576263.071 7

  39218369.130 7 206094006.330 7

 11 11  1  2  2 15.0000000  0 21G02G29G05G27G12G21G25G09G10R13R14R24
                                R17R01R15R18R02R16S20S33S38
  22451102.120 7 117981536.405 7  91933791.612 5  22451103.756 5  22451101.606 5

  21874087.166 8 114949121.630 8  89570785.391 6  21874093.026 6  21874087.086 6
  21874093.623 7
  22980277.476 7 120762325.718 7  94100613.672 5  22980281.115 5  22980277.538 5
  22980282.003 6
  24097934.567 7 126635471.902 7  98677025.243 4  24097949.048 4  24097934.089 4

  20600756.232 8 108257937.762 8  84356948.739 7  20600758.589 7  20600756.125 7
  20600758.959 7
  23873202.790 6 125454541.610 6  97756817.101 3  23873209.484 3  23873202.097 3

  21147972.672 8 111133463.834 8  86597600.477 7  21147978.667 7  21147972.073 7
  21147979.287 7
  22087247.503 7 116069408.309 7  90443597.072 5  22087250.377 5  22087246.976 5

  25457891.808 6 133782137.864 6 104245834.459 1  25457893.941 1  25457890.632 1

  24337937.327 6 129963209.896 6 101082590.787 6
  24337955.422 6
  20312369.313 9 108276480.888 9  84215136.248 8
  20312379.038 8
  23099960.359 6 123526040.851 6  96075963.380 5
  23099965.485 5
  20863226.475 7 111643446.991 7  86833724.404 6
  20863232.931 6
  23494985.776 7 125594175.965 7  97684387.182 6
  23494992.879 6
  19970623.125 8 106716994.922 8  83002156.424 7
  19970633.850 7
  22152178.206 7 118249891.905 7  91972203.468 7
  22152188.254 7
  22919493.635 7 122302856.286 7  95124514.361 6
  22919504.144 6
  23564325.483 4 125876385.120 4

  37209318.118 7 195536368.660 7

  38358453.776 7 201575033.074 7

  39217983.533 7 206091962.048 7

 11 11  1  2  2 30.0000000  0 20G02G29G05G27G12G21G25G09G10R13R14R24
                                R17R01R15R18R02S20S33S38
  22459785.193 7 118027168.035 7  91969348.689 5  22459787.039 5  22459784.684 5

  21871618.712 8 114936149.949 8  89560677.660 6  21871624.320 6  21871618.632 6
  21871625.220 7
  22976496.692 7 120742456.199 7  94085130.938 5  22976499.884 5  22976496.759 5
  22976501.555 6
  24108677.123 7 126691925.956 7  98721015.284 3  24108691.862 3  24108676.663 3

  20599571.322 8 108251710.334 8  84352096.223 7  20599573.743 7  20599571.215 7
  20599573.781 7
  23862254.102 7 125397007.688 7  97711985.847 4  23862260.921 4  23862253.427 4

  21142175.897 9 111103001.828 9  86573863.785 7  21142182.000 7  21142175.312 7
  21142182.784 8
  22095108.042 8 116110716.728 8  90475785.476 6  22095111.262 6  22095107.296 6

  25460475.276 6 133795706.829 6 104256407.853 1  25460475.999 1  25460474.109 1

  24349969.333 6 130027462.143 6 101132564.834 7
  24349988.428 7
  20320608.509 8 108320395.508 8  84249292.035 7
  20320617.932 7
  23106177.221 6 123559287.275 6  96101821.704 5
  23106183.681 5
  20865956.061 7 111658057.279 7  86845087.935 6
  20865963.451 6
  23493774.873 7 125587705.228 7  97679354.388 6
  23493783.631 6
  19965564.573 8 106689965.028 8  82981133.217 7
  19965575.759 7
  22148921.881 8 118232513.150 8  91958686.813 7
  22148932.670 7
  22911874.883 7 122262199.797 7  95092892.742 6
  22911884.746 6
  37208895.304 7 195534128.515 7

  38358220.764 7 201573804.347 7

  39217595.754 7 206089918.182 7

 11 11  1  2  2 45.0000000  0 21G02G29G05G27G12G21G25G09G10R13R14R24
                                R17R01R15R18R02R16S20S33S38
  22468479.418 7 118072855.217 7  92004949.070 5  22468480.969 5  22468478.913 5

  21869155.685 8 114923208.350 8  89550593.369 6  21869161.614 6  21869155.609 6
  21869162.369 7
  22972731.932 7 120722673.237 7  94069715.665 5  22972735.189 5  22972732.003 5
  22972736.750 6
  24119418.119 7 126748369.373 7  98764997.025 3  24119432.623 3  24119417.654 3

  20598403.161 8 108245574.315 8  84347315.533 6  20598406.046 6  20598403.050 6
  20598405.789 7
  23851313.876 6 125339515.564 6  97667186.782 2  23851320.055 2  23851313.206 2

  21136388.864 8 111072592.168 8  86550168.233 7  21136395.179 7  21136388.283 7
  21136395.638 7
  22102981.466 7 116152088.139 7  90508025.363 5  22102984.327 5  22102980.747 5

  25463074.849 6 133809373.787 6 104267057.376 1  25463076.471 1  25463073.714 1

  24362002.699 6 130091712.273 6 101182537.120 6
  24362019.581 6
  20328873.141 8 108364449.502 8  84283556.031 7
  20328882.819 7
  23112386.936 6 123592494.474 6  96127649.549 5
  23112393.266 5
  20868691.416 7 111672690.910 7  86856469.475 6
  20868697.604 6
  23492592.616 7 125581381.459 7  97674435.891 6
  23492600.635 6
  19960542.457 8 106663126.236 8  82960258.619 7
  19960552.736 7
  22145676.971 8 118215192.671 8  91945215.461 8
  22145687.961 8
  22904264.909 7 122221594.091 7  95061310.602 6
  22904275.230 6
  23541601.238 5 125755020.785 5

  37208466.838 7 195531889.459 7

  38357987.113 7 201572575.744 7

  39217210.452 7 206087873.913 7

 11 11  1  2  3  0.0000000  0 21G02G31G29G05G27G12G21G25G09G10R13R14
                                R24R17R01R15R18R02S20S33S38
  22477183.837 7 118118597.788 7  92040592.603 5  22477185.577 5  22477183.346 5

  25069186.653 5 131739465.273 5

  21866699.096 8 114910296.896 8  89540532.556 6  21866704.806 6  21866699.034 6
  21866705.436 7
  22968984.079 7 120702977.358 7  94054368.261 5  22968987.317 5  22968984.177 5
  22968988.518 6
  24130156.653 7 126804801.713 7  98808970.161 4  24130171.905 4  24130156.206 4

  20597252.353 8 108239525.555 8  84342601.886 6  20597254.321 6  20597252.233 6
  20597255.184 7
  23840381.028 6 125282066.637 6  97622421.630 3  23840387.112 3  23840380.331 3

  21130611.862 8 111042234.553 8  86526513.111 6  21130617.937 6  21130611.286 6
  21130618.650 7
  22110867.386 7 116193524.683 7  90540312.888 4  22110870.159 4  22110866.828 4

  25465694.943 6 133823138.636 6 104277783.391 1  25465695.652 1  25465693.857 1

  24374033.363 6 130155959.433 6 101232507.322 6
  24374051.690 6
  20337163.566 8 108408641.556 8  84317928.536 7
  20337172.859 7
  23118590.215 6 123625662.431 6  96153446.788 5
  23118596.538 5
  20871430.231 7 111687348.343 7  86867869.598 6
  20871437.316 6
  23491435.762 7 125575204.975 7  97669632.006 6
  23491445.709 6
  19955555.059 7 106636478.033 7  82939532.292 7
  19955565.812 7
  22142443.356 7 118197930.718 7  91931789.592 7
  22142453.356 7
  22896665.758 7 122181039.784 7  95029768.455 6
  22896675.241 6
  37208038.166 7 195529649.211 7

  38357754.714 7 201571346.784 7

  39216818.492 7 206085830.073 7

 11 11  1  2  3 15.0000000  0 22G02G31G29G05G27G12G21G25G09G10R13R14
                                R24R17R01R15R18R02R16S20S33S38
  22485898.899 7 118164395.310 7  92076278.955 5  22485900.787 5  22485898.412 5

  25059784.612 5 131690054.280 5

  21864247.398 8 114897415.374 8  89530495.079 6  21864253.802 6  21864247.322 6
  21864254.058 7
  22965252.244 7 120683368.651 7  94039088.789 5  22965255.587 5  22965252.328 5
  22965256.857 6
  24140893.875 6 126861222.732 6  98852934.434 3  24140909.106 3  24140893.433 3

  20596118.511 8 108233569.170 8  84337961.034 7  20596120.778 7  20596118.391 7
  20596120.961 7
  23829457.372 6 125224661.084 6  97577690.274 3  23829462.934 3  23829456.666 3

  21124844.700 8 111011930.923 8  86502900.574 7  21124851.024 7  21124844.119 7
  21124851.377 7
  22118764.719 8 116235024.431 8  90572656.431 5  22118767.929 5  22118764.246 5

  25468332.632 6 133837001.365 6 104288585.571 1  25468333.547 1  25468331.452 1

  24386063.950 6 130220203.518 6 101282475.123 6
  24386082.027 6
  20345479.992 7 108452969.916 7  84352404.747 6
  20345489.427 6
  23124785.152 7 123658790.794 7  96179213.303 6
  23124792.191 6
  20874173.904 7 111702029.334 7  86879288.180 6
  20874181.785 6
  23490308.165 7 125569175.980 7  97664942.765 6
  23490317.613 6
  19950604.042 8 106610021.238 8  82918954.815 7
  19950614.550 7
  22139220.621 7 118180726.640 7  91918408.812 7
  22139230.793 7
  22889074.019 7 122140537.365 7  94998266.711 6
  22889085.428 6
                                  97715302.479 5
  23518941.152 5
  37207612.297 7 195527409.173 7

  38357520.043 7 201570117.761 7

  39216433.132 7 206083784.973 7

 11 11  1  2  3 30.0000000  0 22G02G31G29G05G27G12G21G25G09G10R13R14
                                R24R17R01R15R18R02R16S20S33S38
  22494623.983 7 118210247.449 7  92112007.875 5  22494626.229 5  22494623.496 5

  25050395.642 5 131640713.397 5 102577202.724 2  25050401.729 2  25050395.146 2

  21861801.996 8 114884563.677 8  89520480.831 6  21861808.419 6  21861801.920 6
  21861808.516 7
  22961537.311 7 120663847.333 7  94023877.398 5  22961540.759 5  22961537.395 5
  22961542.348 6
  24151628.525 6 126917632.012 6  98896889.576 3  24151643.540 3  24151628.114 3

  20595001.940 8 108227702.490 8  84333389.825 7  20595004.093 7  20595001.811 7
  20595004.310 7
  23818540.996 6 125167299.479 6  97532993.334 3  23818547.524 3  23818540.308 3

  21119088.087 8 110981678.954 8  86479327.749 6  21119093.662 6  21119087.515 6
  21119094.712 7
  22126674.336 8 116276588.037 8  90605043.410 5  22126677.604 5  22126673.786 5

  25470989.102 6 133850961.835 6 104299463.881 1  25470990.147 1  25470987.980 1

  24398094.560 6 130284444.207 6 101332440.535 6
  24398110.627 6
  20353822.197 8 108497434.217 8  84386988.091 7
  20353831.894 7
  23130972.586 6 123691879.765 6  96204949.233 6
  23130979.797 6
  20876921.742 7 111716733.434 7  86890724.714 6
  20876928.634 6
  23489209.327 7 125563294.706 7  97660368.413 6
  23489217.787 6
  19945689.051 8 106583756.378 8  82898526.610 7
  19945699.541 7
  22136008.865 7 118163581.040 7  91905073.556 7
  22136018.170 7
  22881494.531 7 122100087.268 7  94966805.633 7
  22881505.054 7
                                  97668280.130 5
  23507622.610 5
  37207186.751 7 195525168.767 7

  38357286.495 7 201568890.304 7

  39216042.576 7 206081740.757 7

 11 11  1  2  3 45.0000000  0 21G02G31G29G05G27G12G21G25G09G10R13R14
                                R24R17R01R15R18R02S20S33S38
  22503359.706 7 118256153.928 7  92147779.129 5  22503361.968 5  22503359.228 5

  25041019.060 6 131591443.084 6 102538810.205 2  25041025.908 2  25041018.591 2

  21859361.818 8 114871741.575 8  89510489.655 6  21859368.532 6  21859361.747 6
  21859368.206 7
  22957839.568 7 120644413.913 7  94008734.506 5  22957842.517 5  22957839.652 5
  22957844.338 6
  24162360.382 7 126974029.243 7  98940835.345 4  24162375.801 4  24162359.980 4

  20593902.980 8 108221926.127 8  84328888.628 6  20593904.830 6  20593902.855 6
  20593905.361 7
  23807633.858 6 125109981.084 6  97488329.862 3  23807639.891 3  23807633.188 3

  21113341.212 8 110951481.085 8  86455797.243 7  21113347.015 7  21113340.631 7
  21113348.049 7
  22134596.589 6 116318215.510 6  90637479.871 5  22134599.870 5  22134596.102 5

  25473664.619 6 133865020.084 6 104310418.400 1  25473665.358 1  25473663.448 1

  24410122.585 6 130348680.025 6 101382401.861 5
  24410139.625 5
  20362189.275 8 108542036.857 8  84421679.074 7
  20362198.690 7
  23137153.767 7 123724929.205 7  96230654.358 6
  23137158.910 6
  20879673.675 7 111731460.006 7  86902178.785 6
  20879680.194 6
  23488136.026 6 125557561.325 6  97655909.124 6
  23488144.002 6
  19940809.950 8 106557682.898 8  82878247.272 7
  19940819.918 7
  22132807.293 7 118146492.203 7  91891782.382 6
  22132817.524 6
  22873924.565 7 122059690.095 7  94935385.676 6
  22873934.547 6
  37206756.706 7 195522928.329 7

  38357049.602 7 201567660.562 7

  39215650.670 6 206079696.897 6

 11 11  1  2  4  0.0000000  0 22G02G31G29G05G27G12G21G25G09G10R13R14
                                R24R17R01R15R18R02R16S20S33S38
  22512105.763 7 118302114.118 7  92183592.232 5  22512107.800 5  22512105.298 5

  25031657.217 6 131542243.665 6 102500472.880 2  25031663.667 2  25031657.048 2
  25031664.139 4
  21856927.303 8 114858948.857 8  89500521.369 6  21856934.083 6  21856927.227 6
  21856934.008 7
  22954158.577 7 120625068.826 7  93993660.443 5  22954161.174 5  22954158.657 5
  22954163.011 6
  24173090.614 7 127030413.992 7  98984771.368 4  24173105.871 4  24173090.252 4

  20592821.030 8 108216240.965 8  84324458.812 6  20592822.907 6  20592820.905 6
  20592823.273 7
  23796735.047 6 125052706.884 6  97443700.905 3  23796740.767 3  23796734.390 3

  21107604.517 8 110921336.372 8  86432308.274 7  21107610.312 7  21107603.932 7
  21107610.946 7
  22142530.353 7 116359904.861 7  90669964.093 4  22142533.637 4  22142529.839 4

  25476357.891 6 133879175.947 6 104321448.981 2  25476359.211 2  25476356.729 2

  24422151.655 6 130412911.374 6 101432359.673 5
  24422169.172 5
  20370581.909 8 108586776.061 8  84456477.788 7
  20370591.570 7
  23143326.170 7 123757938.874 7  96256328.582 6
  23143333.042 6
  20882429.467 7 111746209.041 7  86913650.306 6
  20882436.968 6
  23487091.737 7 125551975.918 7  97651564.894 6
  23487099.661 6
  19935966.975 8 106531801.705 8  82858117.486 7
  19935977.285 7
  22129616.668 7 118129461.156 7  91878536.085 7
  22129626.486 7
  22866363.585 7 122019346.434 7  94904007.381 6
  22866373.458 6
  23485013.667 6 125452728.729 6  97574386.354 6
  23485023.888 6
  37206335.238 7 195520688.927 7

  38356821.442 7 201566433.443 7

  39215264.022 7 206077652.574 7

 11 11  1  2  4 15.0000000  0 22G02G31G29G05G27G12G21G25G09G10R13R14
                                R24R17R01R15R18R02R16S20S33S38
  22520861.975 7 118348127.640 7  92219446.895 5  22520863.635 5  22520861.528 5

  25022309.380 5 131493115.312 5 102462190.979 2  25022315.275 2  25022309.367 2
  25022315.576 5
  21854498.565 8 114846185.448 8  89490575.923 6  21854505.133 6  21854498.512 6
  21854504.925 7
  22950493.766 7 120605812.123 7  93978655.225 5  22950497.354 5  22950493.824 5
  22950497.865 6
  24183817.657 7 127086785.906 7  99028697.437 4  24183833.352 4  24183817.291 4

  20591756.082 8 108210647.196 8  84320100.461 6  20591758.205 6  20591755.962 6
  20591758.106 7
  23785843.866 6 124995477.513 6  97399107.111 3  23785849.840 3  23785843.218 3

  21101878.266 9 110891245.612 9  86408861.201 7  21101883.697 7  21101877.681 7
  21101884.515 8
  22150476.810 7 116401655.969 7  90702496.642 5  22150480.042 5  22150476.480 5

  25479070.608 6 133893429.358 6 104332555.550 2  25479071.706 2  25479069.500 2

  24434178.778 6 130477137.614 6 101482313.537 5
  24434197.033 5
  20379000.202 8
  20379010.323 7
  23149491.131 6 123790908.817 6  96281971.865 6
  23149498.828 6
  20885190.388 7 111760980.219 7  86925139.032 6
  20885196.540 6
  23486074.910 7 125546538.942 7  97647336.114 6
  23486081.769 6
  19931159.391 8 106506112.990 8  82838137.407 7
  19931169.548 7
  22126436.415 7 118112487.363 7  91865334.381 7
  22126446.376 7
  22858813.390 7 121979056.692 7  94872671.036 7
  22858823.385 7
  23473733.760 6 125392468.915 6  97527517.400 6
  23473742.842 6
  37205910.358 7 195518448.624 7

  38356584.128 7 201565205.749 7

  39214874.173 7 206075608.883 7

 11 11  1  2  4 30.0000000  0 22G02G31G29G05G27G12G21G25G09G10R13R14
                                R24R17R01R15R18R02R16S20S33S38
  22529628.243 7 118394194.278 7  92255342.965 5  22529629.987 5  22529627.810 5

  25012974.295 6 131444058.596 6 102423964.804 2  25012980.338 2  25012974.296 2
  25012981.463 5
  21852075.283 8 114833451.289 8  89480653.282 6  21852081.719 6  21852075.239 6
  21852081.400 7
  22946845.994 7 120586644.176 7  93963719.200 5  22946850.084 5  22946846.038 5
  22946850.987 6
  24194542.386 7 127143144.707 7  99072613.261 4  24194558.386 4  24194541.997 4

  20590709.361 8 108205143.218 8  84315811.178 6  20590710.629 6  20590709.254 6
  20590711.416 7
  23774962.097 7 124938292.805 7  97354547.954 4  23774967.319 4  23774961.489 4

  21096162.255 8 110861209.483 8  86385456.816 6  21096167.255 6  21096161.679 6
  21096167.712 6
  22158433.741 8 116443471.995 8  90735079.458 5  22158438.457 5  22158433.500 5

  25481801.147 5 133907780.363 5 104343738.148 2  25481802.750 2  25481800.079 2

  24446204.918 6 130541358.225 6 101532262.998 6
  24446222.212 6
  20387444.218 7 108676653.477 7  84526379.303 6
  20387454.622 6
  23155648.764 6 123823838.988 6  96307584.232 6
  23155658.017 6
  20887954.504 7 111775773.170 7  86936644.725 6
  20887960.894 6
  23485084.656 7 125541250.364 7  97643222.848 5
  23485093.270 5
  19926387.769 8 106480616.593 8  82818306.917 7
  19926398.166 7
  22123267.512 7 118095570.133 7  91852176.559 6
  22123277.338 6
  22851273.258 7 121938821.459 7  94841377.039 7
  22851283.557 7
  23462465.071 6 125332276.012 6  97480700.486 6
  23462474.924 6
  37205479.016 7 195516209.255 7

  38356350.379 7 201563978.059 7

  39214487.655 7 206073564.839 7

 11 11  1  2  4 45.0000000  0 22G02G31G29G05G27G12G21G25G09G10R13R14
                                R24R17R01R15R18R02R16S20S33S38
  22538404.532 7 118440313.633 7  92291280.110 5  22538406.494 5  22538404.121 5

  25003652.850 6 131395073.776 6 102385794.703 2  25003658.799 2  25003652.854 2
  25003659.389 5
  21849657.471 8 114820746.207 8  89470753.299 6  21849663.716 6  21849657.431 6
  21849663.974 7
  22943215.881 7 120567565.194 7  93948852.494 5  22943219.314 5  22943215.961 5
  22943220.066 6
  24205264.583 7 127199489.952 7  99116518.543 4  24205280.523 4  24205264.181 4

  20589679.082 8 108199731.911 8  84311594.902 6  20589681.025 6  20589678.975 6
  20589681.374 7
  23764088.747 7 124881152.268 7  97310022.880 3  23764093.750 3  23764088.139 3

  21090456.617 8 110831225.955 8  86362092.992 6  21090461.098 6  21090456.032 6
  21090462.641 7
  22166402.428 7 116485350.526 7  90767711.740 5  22166408.122 5  22166402.129 5

  25484550.900 5 133922229.056 5 104354996.875 1  25484552.176 1  25484549.796 1

  24458230.990 6 130605572.431 6 101582207.337 6
  24458248.329 6
  20395912.821 8 108721796.377 8  84561490.580 7
  20395923.016 7
  23161799.359 6 123856729.172 6  96333165.450 5
  23161808.406 5
  20890722.551 7 111790588.010 7  86948167.413 6
  20890729.207 6
  23484123.321 7 125536110.379 7  97639225.085 6
  23484131.459 6
  19921652.957 8 106455313.269 8  82798626.571 7
  19921663.254 7
  22120109.001 7 118078710.285 7  91839063.436 7
  22120119.337 7
  22843742.868 7 121898641.171 7  94810125.829 7
  22843753.506 7
  23451211.163 6 125272151.828 6

  37205055.602 7 195513970.149 7

  38356118.910 7 201562751.218 7

  39214097.318 7 206071519.981 7

 11 11  1  2  5  0.0000000  0 22G02G31G29G05G27G12G21G25G09G10R13R14
                                R24R17R01R15R18R02R16S20S33S38
  22547190.862 7 118486485.450 7  92327258.114 5  22547192.888 5  22547190.456 5

  24994344.401 6 131346161.258 6 102347680.918 2  24994351.027 2  24994344.388 2
  24994351.872 5
  21847245.289 8 114808070.218 8  89460875.972 6  21847251.298 6  21847245.240 6
  21847251.669 7
  22939601.946 7 120548575.596 7  93934055.421 5  22939605.667 5  22939602.022 5
  22939606.756 6
  24215983.405 7 127255821.391 7  99160413.066 3  24216000.232 3  24215982.999 3

  20588666.723 8 108194412.575 8  84307450.131 6  20588668.618 6  20588666.616 6
  20588668.885 7
  23753223.030 6 124824056.823 6  97265533.173 3  23753228.691 3  23753222.427 3

  21084761.146 8 110801298.179 8  86338773.004 7  21084766.232 7  21084760.561 7
  21084767.137 7
  22174383.561 7 116527291.216 7  90800392.287 6  22174388.605 6  22174383.248 6

  25487319.199 5 133936775.386 5 104366331.777 1  25487320.311 1  25487318.050 1

  24470254.229 6 130669780.326 6 101632146.722 5
  24470272.005 5
  20404406.332 9 108767075.232 9  84596708.460 9
  20404416.537 9
  23167943.733 6 123889579.544 6  96358715.739 5
  23167951.261 5
  20893495.528 7 111805423.658 7  86959706.244 6
  20893502.473 6
  23483189.908 7 125531119.426 7  97635343.251 6
  23483196.983 6
  19916953.764 8 106430203.528 8  82779096.805 7
  19916963.646 7
  22116961.016 7 118061907.062 7  91825994.419 7
  22116971.359 7
  22836224.053 7 121858516.639 7  94778917.954 7
  22836234.086 7
  23439967.705 5 125212095.169 5  97387237.847 5
  23439977.864 5
  37204627.677 7 195511730.134 7

  38355884.686 7 201561522.968 7

  39213713.514 7 206069475.428 7

 11 11  1  2  5 15.0000000  0 22G02G31G29G05G27G12G21G25G09G10R13R14
                                R24R17R01R15R18R02R16S20S33S38
  22555986.763 7 118532709.416 7  92363276.761 5  22555989.160 5  22555986.348 5

  24985051.292 6 131297321.348 6 102309623.752 3  24985057.309 3  24985051.300 3
  24985058.441 5
  21844838.834 8 114795423.083 8  89451021.122 6  21844844.282 6  21844838.785 6
  21844844.668 7
  22936005.478 7 120529675.562 7  93919328.135 5  22936009.221 5  22936005.567 5
  22936010.032 6
  24226701.140 7 127312138.683 7  99204296.556 4  24226717.625 4  24226700.738 4

  20587671.959 8 108189184.259 8  84303376.092 6  20587673.387 6  20587671.852 6
  20587674.053 7
  23742366.997 7 124767006.790 7  97221078.706 4  23742372.329 4  23742366.403 4

  21079076.603 8 110771425.809 8  86315495.990 6  21079081.731 6  21079076.013 6
  21079082.742 7
  22182376.446 7 116569289.649 7  90833118.120 5  22182380.888 5  22182376.120 5

  25490105.647 5 133951419.234 5 104377742.619 1  25490106.803 1  25490104.521 1

  24482277.079 6 130733981.494 6 101682080.745 6
  24482295.089 6
  20412925.358 7 108812483.171 7  84632025.684 7
  20412935.877 7
  23174079.716 6 123922389.835 6  96384234.875 5
  23174085.624 5
  20896271.657 7 111820280.314 7  86971261.459 6
  20896278.935 6
  23482283.863 7 125526277.561 7  97631577.367 6
  23482291.544 6
  19912291.025 8 106405287.582 8  82759717.782 7
  19912301.238 7
  22113823.788 7 118045159.677 7  91812968.788 7
  22113833.578 7
  22828715.020 7 121818448.275 7  94747753.726 7
  22828725.239 7
  23428737.217 5 125152107.261 5  97340580.641 6
  23428747.433 6
  37204202.126 7 195509490.257 7

  38355652.220 6 201560295.511 6

  39213319.117 7 206067430.588 7

 11 11  1  2  5 30.0000000  0 22G02G31G29G05G27G12G21G25G09G10R13R14
                                R24R17R01R15R18R02R16S20S33S38
  22564793.090 7 118578985.294 7  92399335.862 5  22564795.153 5  22564792.693 5

  24975770.435 6 131248554.405 6 102271623.440 3  24975777.499 3  24975770.470 3
  24975778.532 5
  21842437.192 8 114782804.813 8  89441188.774 6  21842442.712 6  21842437.143 6
  21842443.681 7
  22932425.900 7 120510865.450 7  93904670.942 5  22932430.076 5  22932425.971 5
  22932430.550 6
  24237414.835 7 127368441.527 7  99248168.787 4  24237431.874 4  24237414.429 4

  20586694.497 8 108184048.931 8  84299374.750 6  20586696.239 6  20586694.395 6
  20586696.717 7
  23731519.203 6 124710003.018 6  97176660.494 3  23731524.844 3  23731518.564 3

  21073402.455 8 110741608.225 8  86292261.867 7  21073407.479 7  21073401.888 7
  21073408.414 8
  22190380.905 7 116611351.383 7  90865894.027 3  22190385.638 3  22190380.642 3

  25492910.980 5 133966160.718 5 104389229.552 1  25492912.116 1  25492909.755 1

  24494298.367 6 130798175.580 6 101732009.445 6
  24494316.746 6
  20421468.055 8 108858027.667 8  84667450.274 7
  20421478.284 7
  23180207.148 6 123955160.385 6  96409723.111 6
  23180214.113 6
  20899052.595 7 111835158.079 7  86982833.093 6
  20899058.209 6
  23481406.130 7 125521585.316 7  97627927.852 6
  23481414.385 6
  19907664.359 8 106380565.264 8  82740489.339 7
  19907674.904 7
  22110697.125 7 118028469.275 7  91799987.540 7
  22110706.095 7
  22821215.900 7 121778436.580 7  94716633.670 6
  22821227.243 6
  23417521.745 6 125092188.459 6  97293977.110 6
  23417530.334 6
  37203776.607 7 195507250.345 7

  38355416.731 7 201559069.014 7

  39212928.807 6 206065386.169 6

 11 11  1  2  5 45.0000000  0 22G02G31G29G05G27G12G21G25G09G10R13R14
                                R24R17R01R15R18R02R16S20S33S38
  22573608.733 7 118625312.638 7  92435435.057 5  22573610.913 5  22573608.336 5

  24966504.782 6 131199860.792 6 102233680.277 3  24966511.675 3  24966504.804 3
  24966511.488 5
  21840041.416 8 114770215.215 8  89431378.762 6  21840046.794 6  21840041.358 6
  21840047.632 7
  22928863.833 7 120492145.757 7  93890084.188 5  22928868.093 5  22928863.891 5
  22928868.179 6
  24248126.523 7 127424729.585 7  99292029.478 4  24248143.422 4  24248126.085 4

  20585734.525 8 108179005.979 8  84295445.460 6  20585736.454 6  20585734.418 6
  20585736.894 7
  23720680.013 7 124653045.528 7  97132278.321 4  23720686.047 4  23720679.365 4

  21067738.793 8 110711845.649 8  86269070.159 7  21067743.771 7  21067738.217 7
  21067744.391 7
  22198396.491 6                                  22198400.619 4  22198396.228 4

  25495734.753 5 133980999.722 5 104400792.461 1  25495735.811 1  25495733.604 1

  24506318.410 6 130862362.280 6 101781932.502 5
  24506337.344 5
  20430037.633 8 108903700.857 8  84702975.115 7
  20430047.295 7
  23186327.445 6 123987890.713 6  96435180.008 5
  23186335.523 5
  20901835.385 7 111850056.441 7  86994420.750 6
  20901842.180 6
  23480556.172 7 125517042.534 7  97624394.606 6
  23480564.363 6
  19903074.562 8 106356037.422 8  82721412.134 7
  19903084.799 7
  22107580.641 7 118011834.968 7  91787049.900 7
  22107590.211 7
  22813728.881 7 121738482.092 7  94685558.056 6
  22813739.089 6
  23406316.010 5 125032339.113 5  97247427.430 6
  23406327.922 6
  37203349.620 7 195505010.001 7

  38355182.713 7 201557842.394 7

  39212542.087 7 206063342.377 7

 11 11  1  2  6  0.0000000  0 22G02G31G29G05G27G12G21G25G09G10R13R14
                                R24R17R01R15R18R02R16S20S33S38
  22582434.381 7 118671690.944 7  92471573.980 5  22582436.366 5  22582433.975 5

  24957252.361 6 131151240.707 6 102195794.381 3  24957260.143 3  24957252.392 3
  24957259.916 5
  21837650.973 8 114757654.136 8  89421590.977 6  21837656.408 6  21837650.911 6
  21837657.258 7
  22925318.634 7 120473516.565 7  93875567.967 5  22925322.642 5  22925318.674 5
  22925323.024 6
  24258834.943 6 127481002.326 6  99335878.265 4  24258852.060 4  24258834.470 4

  20584792.580 8 108174054.940 8  84291587.527 6  20584794.015 6  20584792.473 6
  20584794.674 7
  23709850.280 6 124596134.686 6  97087932.590 3  23709855.822 3  23709849.623 3

  21062085.646 8 110682139.461 8  86245922.664 6  21062090.706 6  21062085.088 6
  21062091.253 7
  22206423.490 7 116695654.026 7  90931607.135 5  22206427.467 5  22206423.088 5

  25498576.756 5 133995936.127 5 104412431.342 1  25498578.024 1  25498575.598 1

  24518338.089 6 130926541.197 6 101831849.681 5
  24518355.592 5
  20438630.894 7
  20438640.487 6
  23192440.285 6 124020580.808 6  96460605.599 5
  23192451.671 5
  20904624.178 7 111864975.048 7  87006024.153 6
  20904630.318 6
  23479734.555 6 125512649.538 6  97620977.826 6
  23479742.475 6
  19898521.235 8 106331704.266 8  82702486.386 7
  19898530.856 7
  22104474.240 7 117995255.920 7  91774155.253 7
  22104484.686 7
  22806252.448 7 121698585.440 7  94654527.361 7
  22806262.422 7
  23395124.466 5 124972560.259 5  97200940.847 6
  23395136.683 6
  37202922.553 7 195502768.937 7

  38354950.926 7 201556615.949 7

  39212149.877 7 206061297.801 7

 11 11  1  2  6 15.0000000  0 22G02G31G29G05G27G12G21G25G09G10R13R14
                                R24R17R01R15R18R02R16S20S33S38
  22591269.547 7 118718119.825 7  92507752.311 5  22591271.474 5  22591269.145 5

  24948015.044 6 131102694.547 6 102157966.087 3  24948022.039 3  24948015.061 3
  24948022.126 5
  21835266.427 8 114745121.437 8  89411825.309 6  21835271.356 6  21835266.351 6
  21835272.251 7
  22921790.748 7 120454978.156 7  93861122.481 5  22921794.483 5  22921790.788 5
  22921794.909 6
  24269540.902 6 127537259.563 6  99379714.935 4  24269557.415 4  24269540.411 4

  20583867.782 8 108169197.355 8  84287802.643 6  20583869.659 6  20583867.675 6
  20583869.702 7
  23699028.978 6 124539270.613 6  97043623.379 3  23699034.602 3  23699028.308 3

  21056443.781 8 110652487.610 8  86222816.562 6  21056448.198 6  21056443.227 6
  21056449.810 7
  22214461.924 7 116737895.362 7  90964525.039 4  22214466.040 4  22214461.531 4

  25501436.781 5 134010970.059 5 104424146.148 1  25501438.843 1  25501435.597 1

  24530355.247 6 130990711.906 6 101881760.602 5
  24530370.526 5
  20447248.732 8 108995446.000 8  84774331.375 8
  20447258.650 8
  23198546.978 6 124053230.595 6  96485999.977 5
  23198554.041 5
  20907415.332 7 111879913.856 7  87017643.250 6
  20907422.897 6
  23478940.317 7 125508406.378 7  97617677.606 6
  23478948.843 6
  19894004.074 8 106307565.896 8  82683712.114 7
  19894013.855 7
  22101378.994 7 117978732.646 7  91761303.913 7
  22101388.796 7
  22798786.417 7 121658747.089 7  94623542.053 6
  22798797.295 6
  23383946.935 6 124912851.876 6  97154501.030 6
  23383958.151 6
  37202497.843 7 195500526.912 7

  38354718.031 7 201555389.334 7

  39211764.700 7 206059253.183 7

 11 11  1  2  6 30.0000000  0 22G02G31G29G05G27G12G21G25G09G10R13R14
                                R24R17R01R15R18R02R16S20S33S38
  22600114.066 7 118764599.076 7  92543969.890 5  22600116.017 5  22600113.673 5

  24938791.048 6 131054222.538 6 102120195.578 3  24938798.253 3  24938791.088 3
  24938798.877 5
  21832886.800 8 114732617.000 8  89402081.656 6  21832891.626 6  21832886.724 6
  21832892.908 7
  22918280.624 7 120436530.690 7  93846747.861 5  22918283.910 5  22918280.659 5
  22918284.948 6
  24280243.447 7 127593500.957 7  99423539.291 4  24280259.483 4  24280242.942 4

  20582961.056 8 108164431.917 8  84284089.365 6  20582962.662 6  20582960.949 6
  20582962.911 7
  23688216.560 6 124482453.534 6  96999350.860 3  23688222.380 3  23688215.894 3

  21050811.953 8 110622894.081 8  86199756.900 7  21050817.061 7  21050811.399 7
  21050818.169 6
  22222511.041 6 116780196.605 6  90997488.198 3  22222515.533 3  22222510.661 3

  25504316.267 5 134026101.286 5 104435936.739 1  25504318.295 1  25504315.302 1

  24542369.771 6 131054873.352 6 101931664.336 5
  24542387.502 5
  20455891.200 8
  20455902.255 8
  23204644.343 6 124085840.085 6  96511362.922 5
  23204652.092 5
  20910210.961 7 111894872.057 7  87029277.426 6
  20910217.870 6
  23478174.206 6 125504313.433 6  97614494.252 6
  23478183.311 6
  19889523.057 8 106283622.651 8  82665089.621 7
  19889533.250 7
  22098294.094 7 117962264.563 7  91748495.534 7
  22098303.783 7
  22791331.167 7 121618967.359 7  94592602.403 6
  22791342.517 6
  23372782.615 6 124853214.477 6  97108103.363 5
  23372794.455 5
  37202071.702 7 195498285.129 7

  38354482.792 7 201554163.739 7

  39211372.986 7 206057210.038 7

 11 11  1  2  6 45.0000000  0 22G02G31G29G05G27G12G21G25G09G10R13R14
                                R24R17R01R15R18R02R16S20S33S38
  22608968.603 7 118811128.279 7  92580226.387 5  22608969.870 5  22608968.228 5

  24929581.422 6 131005825.277 6 102082483.321 3  24929588.718 3  24929581.475 3
  24929588.169 5
  21830512.739 8 114720140.692 8  89392359.910 6  21830517.391 6  21830512.659 6
  21830518.523 7
  22914787.437 7 120418174.630 7  93832444.470 5  22914791.247 5  22914787.477 5
  22914791.774 6
  24290942.641 7 127649726.113 7  99467351.012 4  24290958.712 4  24290942.109 4

  20582072.014 8 108159760.250 8  84280449.215 6  20582073.713 6  20582071.907 6
  20582074.168 7
  23677413.571 6 124425683.658 6  96955114.964 4  23677418.967 4  23677412.892 4

  21045191.393 8 110593356.602 8  86176740.486 6  21045196.468 6  21045190.835 6
  21045197.218 7
  22230571.573 7 116822556.984 7  91030496.010 5  22230576.000 5  22230571.198 5

  25507214.173 6 134041329.737 6 104447803.126 1  25507215.987 1  25507213.212 1

  24554382.501 6 131119025.597 6 101981560.884 6
  24554401.314 6
  20464558.972 7
  20464568.611 6
  23210735.014 6 124118409.215 6  96536694.464 5
  23210740.989 5
  20913009.544 8 111909849.656 8  87040926.723 6
  20913016.803 6
  23477437.274 6 125500370.738 6  97611427.712 6
  23477445.545 6
  19885078.963 8 106259875.125 8  82646619.353 7
  19885089.207 7
  22095219.285 7 117945851.573 7  91735730.005 7
  22095229.362 7
  22783888.517 7 121579247.267 7  94561709.022 6
  22783897.490 6
  23361632.080 6 124793648.979 6  97061774.650 6
  23361643.935 6
  37201647.296 7 195496042.463 7

  38354249.391 7 201552938.199 7

  39210989.151 7 206055165.164 7

 11 11  1  2  7  0.0000000  0 22G02G31G29G05G27G12G21G25G09G10R13R14
                                R24R17R01R15R18R02R16S20S33S38
  22617832.068 7 118857707.064 7  92616521.526 5  22617833.386 5  22617831.711 5

  24920385.557 6 130957502.906 6 102044829.418 3  24920393.260 3  24920385.535 3
  24920392.770 5
  21828143.842 8 114707692.402 8  89382659.998 6  21828148.701 6  21828143.762 6
  21828149.587 7
  22911311.690 7 120399909.836 7  93818212.196 5  22911315.924 5  22911311.730 5
  22911316.455 6
  24301639.203 7 127705934.667 7  99511149.780 4  24301654.735 4  24301638.671 4

  20581200.581 8 108155181.402 8  84276881.380 6  20581202.256 6  20581200.488 6
  20581202.844 7
  23666619.151 6 124368960.345 6  96910914.980 3  23666624.192 3  23666618.476 3

  21039581.677 8 110563876.118 8  86153768.588 6  21039586.621 6  21039581.123 6
  21039587.405 7
  22238643.928 7                                  22238648.383 6  22238643.437 6

  25510131.153 5 134056655.424 5 104459745.299 1  25510132.518 1  25510130.161 1

  24566394.680 6 131183167.840 6 102031449.605 5
  24566411.751 5
  20473248.090 7
  20473259.158 6
  23216818.981 6 124150938.004 6  96561994.647 6
  23216826.269 6
  20915812.275 8 111924846.666 8  87052591.080 6
  20915818.841 6
  23476727.548 6 125496578.508 6  97608478.208 6
  23476736.064 6
  19880671.320 8 106236322.644 8  82628300.793 7
  19880681.843 7
  22092154.989 7 117929493.490 7  91723007.170 7
  22092165.041 7
  22776456.022 7 121539586.918 7  94530862.170 6
  22776465.356 6
  23350494.293 5 124734155.564 5  97015502.005 6
  23350506.573 6
  37201219.348 7 195493800.552 7

  38354017.439 7 201551713.039 7

  39210602.937 7 206053121.395 7

 11 11  1  2  7 15.0000000  0 22G02G31G29G05G27G12G21G25G09G10R13R14
                                R24R17R01R15R18R02R16S20S33S38
  22626705.191 7 118904335.278 7  92652855.164 5  22626706.628 5  22626704.834 5

  24911204.698 6 130909255.726 6 102007234.087 3  24911212.018 3  24911204.658 3
  24911212.409 5
  21825780.322 8 114695272.076 8  89372981.896 6  21825785.332 6  21825780.255 6
  21825786.441 7
  22907853.584 7 120381737.066 7  93804051.620 5  22907857.893 5  22907853.624 5
  22907857.688 6
  24312331.909 6 127762126.336 6  99554935.408 4  24312347.534 4  24312331.351 4

  20580347.113 8 108150696.315 8  84273386.501 7  20580348.789 7  20580347.024 7
  20580349.096 7
  23655834.258 6 124312285.273 6  96866752.956 3  23655839.077 3  23655833.579 3

  21033982.546 9 110534453.548 9  86130842.152 7  21033987.904 7  21033981.988 7
  21033988.237 8
  22246727.257 6 116907446.738 6  91096642.276 4  22246731.230 4  22246726.645 4

  25513066.228 5 134072078.421 5 104471763.280 1  25513067.391 1  25513065.289 1

  24578404.448 6 131247299.923 6 102081330.332 6
  24578421.274 6
  20481964.928 7
  20481976.778 7
  23222894.700 6 124183426.281 6  96587263.332 5
  23222900.757 5
  20918618.405 8 111939862.787 8  87064270.318 6
  20918625.208 6
  23476046.592 6 125492936.982 6  97605645.970 6
  23476055.064 6
  19876300.423 8 106212966.747 8  82610135.097 7
  19876310.591 7
  22089101.311 7 117913190.538 7  91710327.185 7
  22089110.523 7
  22769035.089 7 121499987.023 7  94500062.353 6
  22769045.302 6
  23339371.753 5 124674734.836 5  96969285.952 6
  23339382.665 6
  37200790.233 7 195491557.828 7

  38353783.131 6 201550486.923 6

  39210211.116 7 206051075.593 7

 11 11  1  2  7 30.0000000  0 22G02G31G29G05G27G12G21G25G09G10R13R14
                                R24R17R01R15R18R02R16S20S33S38
  22635587.418 7 118951012.369 7  92689226.905 5  22635589.157 5  22635587.061 5

  24902037.935 6 130861084.094 6 101969697.641 3  24902045.187 3  24902037.882 3
  24902045.839 6
  21823421.806 8 114682879.523 8  89363325.445 6  21823427.271 6  21823421.739 6
  21823427.805 7
  22904412.745 7 120363656.690 7  93789963.027 5  22904417.369 5  22904412.785 5
  22904417.057 6
  24323021.126 6 127818300.847 6  99598707.657 3  24323037.171 3  24323020.594 3

  20579511.420 8 108146304.761 8  84269964.405 6  20579513.159 6  20579511.331 6
  20579513.550 8
  23645058.422 6 124255658.221 6  96822628.233 3  23645063.106 3  23645057.765 3

  21028394.726 8 110505087.316 8  86107959.082 6  21028399.793 6  21028394.168 6
  21028400.161 6
  22254821.409 5 116949982.930 5  91129787.194 4  22254826.432 4  22254820.712 4

  25516018.219 5 134087598.525 5 104483856.897 1  25516020.696 1  25516017.307 1

  24590412.635 5 131311421.613 5 102131203.092 6
  24590429.605 6
  20490705.610 8 109227091.408 8  84954502.778 7
  20490716.146 7
  23228961.626 6 124215873.990 6  96612500.443 5
  23228969.340 5
  20921428.137 8 111954897.208 8  87075963.791 6
  20921434.710 6
  23475394.003 6 125489446.580 6  97602931.189 6
  23475402.210 6
  19871966.443 8 106189806.427 8  82592121.537 7
  19871976.486 7
  22086057.059 7 117896942.246 7  91697689.676 7
  22086066.142 7
  22761626.327 7 121460448.088 7  94469309.900 6
  22761634.893 6
  23328261.772 6 124615387.096 6  96923126.629 6
  23328271.720 6
  37200365.917 7 195489314.412 7

  38353548.379 7 201549260.761 7

  39209818.324 7 206049030.533 7

 11 11  1  2  7 45.0000000  0 22G02G31G29G05G27G12G21G25G09G10R13R14
                                R24R17R01R15R18R02R16S20S33S38
  22644478.945 7 118997738.015 7  92725636.471 5  22644480.898 5  22644478.601 5

  24892885.980 7 130812988.400 7 101932220.346 4  24892893.189 4  24892885.927 4
  24892893.063 6
  21821068.599 8 114670514.674 8  89353690.587 6  21821074.420 6  21821068.528 6
  21821074.894 7
  22900990.005 7 120345668.797 7  93775946.517 5  22900994.239 5  22900990.049 5
  22900994.526 6
  24333707.901 6 127874457.691 6  99642466.164 3  24333723.258 3  24333707.410 3

  20578693.837 8 108142006.605 8  84266614.890 6  20578695.379 6  20578693.753 6
  20578695.661 7
  23634291.611 6 124199080.112 6  96778541.911 3  23634296.307 3  23634290.927 3

  21022817.100 8 110475781.149 8  86085123.620 7  21022823.125 7  21022816.537 7
  21022823.457 7
  22262926.272 7 116992574.531 7  91162975.875 5  22262931.230 5  22262925.740 5

  25518991.266 5 134103215.651 5 104496026.224 1  25518992.644 1  25518990.399 1

  24602418.348 6 131375532.092 6 102181067.004 6
  24602434.474 6
  20499469.229 7 109273811.250 7  84990841.290 7
  20499479.890 7
  23235021.784 6 124248281.108 6  96637706.004 5
  23235028.461 5
  20924240.811 8 111969949.886 8  87087671.474 6
  20924247.970 6
  23474769.365 6 125486107.091 6  97600333.821 6
  23474776.234 6
  19867669.183 8 106166842.773 8  82574260.952 7
  19867679.276 7
  22083023.132 7 117880748.228 7  91685094.367 7
  22083032.690 7
  22754227.730 7 121420970.625 7  94438605.294 6
  22754236.461 6
  23317164.861 6 124556113.154 6  96877019.833 7
  23317175.931 7
  37199936.632 7 195487071.586 7

  38353312.568 7 201548035.550 7

  39209432.839 7 206046986.549 7

 11 11  1  2  8  0.0000000  0 22G02G31G29G05G27G12G21G25G09G10R13R14
                                R24R17R01R15R18R02R16S20S33S38
  22653379.741 7 119044511.809 7  92762083.575 5  22653381.596 5  22653379.397 5

  24883748.526 6 130764968.909 6 101894802.435 4  24883755.620 4  24883748.486 4
  24883755.594 6
  21818720.874 8 114658177.315 8  89344077.126 6  21818726.831 6  21818720.803 6
  21818726.997 7
  22897584.526 7 120327773.696 7  93762002.298 5  22897588.866 5  22897584.566 5
  22897588.992 6
  24344390.312 6 127930596.581 6  99686210.683 3  24344406.559 3  24344389.892 3

  20577894.056 8 108137803.203 8  84263339.432 6  20577895.764 6  20577893.972 6
  20577895.993 7
  23623533.445 6 124142550.898 6  96734493.845 3  23623538.396 3  23623532.676 3

  21017251.342 8 110446530.869 8  86062331.072 6  21017256.613 6  21017250.792 6
  21017257.275 7
  22271041.728 8 117035223.616 8  91196208.984 5  22271047.068 5  22271041.277 5

  25521980.844 5 134118929.843 5 104508270.943 1  25521982.881 1  25521979.812 1

  24614420.951 5 131439631.623 5 102230922.495 5
  24614438.574 5
  20508256.292 7 109320655.863 7  85027275.188 7
  20508267.104 7
  23241075.365 6 124280647.604 6  96662879.878 5
  23241080.248 5
  20927057.097 7 111985020.697 7  87099393.253 6
  20927063.454 6
  23474172.810 7 125482918.927 7  97597854.136 6
  23474181.674 6
  19863408.762 8 106144075.952 8  82556553.448 7
  19863418.656 7
  22079999.098 7 117864608.136 7  91672541.100 7
  22080008.871 7
  22746840.787 7 121381555.125 7  94407948.911 6
  22746850.709 6
  23306082.117 5 124496912.879 5  96830975.098 5
  23306093.391 5
  37199509.722 7 195484828.290 7

  38353080.102 7 201546809.844 7

  39209042.636 7 206044942.452 7

 11 11  1  2  8 15.0000000  0 22G02G31G29G05G27G12G21G25G09G10R13R14
                                R24R17R01R15R18R02R16S20S33S38
  22662289.599 7 119091333.411 7  92798567.927 5  22662291.282 5  22662289.251 5

  24874625.408 7 130717026.014 7 101857444.199 4  24874632.213 4  24874625.386 4
  24874633.220 6
  21816378.728 8 114645867.362 8  89334485.008 6  21816384.354 6  21816378.657 6
  21816384.262 7
  22894197.464 7 120309971.634 7  93748130.594 5  22894201.531 5  22894197.513 5
  22894201.593 7
  24355069.782 6 127986717.163 6  99729940.913 3  24355085.992 3  24355069.389 3

  20577112.033 8 108133695.355 8  84260138.979 6  20577114.178 6  20577111.944 6
  20577113.618 7
  23612785.092 6 124086069.891 6  96690482.768 3  23612789.550 3  23612784.310 3

  21011696.486 9 110417339.463 9  86039584.298 7  21011701.574 7  21011695.932 7
  21011702.210 8
  22279169.060 6

  25524990.078 5 134134740.979 5 104520591.448 1  25524991.536 1  25524989.283 1

  24626423.550 5 131503719.310 5 102280769.095 6
  24626439.047 6
  20517068.756 8 109367621.931 8  85063805.348 7
  20517079.627 7
  23247121.045 6 124312973.346 6  96688022.149 5
  23247126.393 5
  20929876.561 7 112000109.732 7  87111129.204 6
  20929884.172 6
  23473604.588 7 125479882.173 7  97595492.190 6
  23473612.853 6
  19859185.134 8 106121506.088 8  82538999.141 7
  19859195.196 7
  22076985.517 7 117848521.814 7  91660029.584 7
  22076995.538 7
  22739466.847 7 121342202.278 7  94377341.208 7
  22739475.585 7
  23295012.558 5 124437787.228 5  96784988.564 6
  23295025.412 6
  37199081.644 7 195482586.150 7

  38352851.209 7 201545584.100 7

  39208653.131 7 206042896.892 7

 11 11  1  2  8 30.0000000  0 22G02G31G29G05G27G12G21G25G09G10R13R14
                                R24R17R01R15R18R02R16S20S33S38
  22671208.414 7 119138202.551 7  92835089.317 5  22671210.161 5  22671208.034 5

  24865516.846 7 130669159.979 7 101820145.871 4  24865523.782 4  24865516.811 4
  24865524.121 6
  21814041.366 8 114633584.720 8  89324914.175 6  21814046.889 6  21814041.295 6
  21814046.994 7
  22890827.074 7 120292262.640 7  93734331.418 5  22890831.761 5  22890827.132 5
  22890831.409 6
  24365745.720 6 128042819.082 6  99773656.617 3  24365762.156 3  24365745.363 3

  20576348.315 8 108129680.069 8  84257009.917 6  20576349.861 6  20576348.231 6
  20576350.214 7
  23602046.673 6 124029638.353 6  96646510.512 3  23602050.685 3  23602045.837 3

  21006153.154 8 110388206.101 8  86016882.458 6  21006157.777 6  21006152.604 6
  21006159.083 7
  22287305.226 7 117120688.612 7  91262818.795 5  22287312.027 5  22287304.815 5

  25528017.056 5 134150648.979 5 104532987.386 1  25528018.762 1  25528016.274 1

  24638422.053 6 131567794.668 6 102330605.941 5
  24638436.787 5
  20525903.717 7
  20525913.902 8
  23253157.839 6 124345258.272 6  96713132.664 6
  23253164.513 6
  20932699.962 8 112015216.206 8  87122878.704 6
  20932705.982 6
  23473065.183 7 125476997.056 7  97593248.224 6
  23473073.247 6
  19854998.300 8 106099133.377 8  82521598.178 7
  19855008.490 7
  22073982.164 7 117832489.139 7  91647559.736 7
  22073992.059 7
  22732102.238 7 121302912.451 7  94346782.550 7
  22732112.500 7
  23283959.511 6 124378736.632 6  96739060.264 5
  23283970.388 5
  37198655.897 7 195480342.436 7

  38352619.190 7 201544359.351 7

  39208265.437 7 206040852.687 7

 11 11  1  2  8 45.0000000  0 22G02G31G29G05G27G12G21G25G09G10R13R14
                                R24R17R01R15R18R02R16S20S33S38
